{
  "data": {
    "stations": [
      {
        "address": "RUE DE L HOPITAL",
        "capacity": 20,
        "lat": 49.44250558644192,
        "lon": 1.098266338219107,
        "name": "05- HOTEL DE VILLE",
        "station_id": "5"
      },
      {
        "address": "COURS CLEMENCEAU",
        "capacity": 15,
        "lat": 49.4336973759198,
        "lon": 1.09090294278958,
        "name": "10- PLACE CARNOT",
        "station_id": "10"
      },
      {
        "address": "ROUTE DE DARNETAL",
        "capacity": 15,
        "lat": 49.441452231089485,
        "lon": 1.120087272683398,
        "name": "20 - AUBERGE DE JEUNESSE",
        "station_id": "20"
      },
      {
        "address": "RUE LECUYER ANGLE RUE LETHUILLIER PINEL",
        "capacity": 15,
        "lat": 49.42576540125409,
        "lon": 1.076303569768087,
        "name": "17- SAINT CLEMENT",
        "station_id": "17"
      },
      {
        "address": "Avenue des Martyrs de la Résistance angle rue de la mare au parc",
        "capacity": 15,
        "lat": 49.42174920022087,
        "lon": 1.079707617664568,
        "name": "19 - JARDIN DES PLANTES",
        "station_id": "19"
      },
      {
        "address": "DEVANT N° 39 ALLEE EUGENE DELACROIX",
        "capacity": 20,
        "lat": 49.44430797679112,
        "lon": 1.093579586130271,
        "name": "04- MUSEE DES BEAUX ARTS",
        "station_id": "4"
      },
      {
        "address": "Rue des Carmes angle rue du Gros Horloge",
        "capacity": 20,
        "lat": 49.440904,
        "lon": 1.09396,
        "name": "22 - CATHEDRALE",
        "station_id": "22"
      },
      {
        "address": "RUE JEANNE D'ARC ANGLE RUE DE LA ROCHEFOUCAULD",
        "capacity": 15,
        "lat": 49.4482851939675,
        "lon": 1.09419956401142,
        "name": "15-GARE",
        "station_id": "15"
      },
      {
        "address": "RUE ARMAND CARREL",
        "capacity": 20,
        "lat": 49.43811211136788,
        "lon": 1.100852281910646,
        "name": "08- SAINT MARC",
        "station_id": "8"
      },
      {
        "address": "Quai Cavelier de la Salle angle avenue Jean Rondeau",
        "capacity": 15,
        "lat": 49.438927,
        "lon": 1.08062,
        "name": "29 - PONT GUILLAUME",
        "station_id": "29"
      },
      {
        "address": "AVENUE PASTEUR",
        "capacity": 20,
        "lat": 49.4442849736749,
        "lon": 1.07838302560908,
        "name": "02- PASTEUR - FAC DE DROIT",
        "station_id": "2"
      },
      {
        "address": "RUE DE LA REPUBLIQUE",
        "capacity": 20,
        "lat": 49.437489866065405,
        "lon": 1.096252291204278,
        "name": "09 - REPUBLIQUE - QUAI CORNEILLE",
        "station_id": "9"
      },
      {
        "address": "Palais de Justice",
        "capacity": 15,
        "lat": 49.442788,
        "lon": 1.091224,
        "name": "25 - STATION MOBILE",
        "station_id": "25"
      },
      {
        "address": "DEVANT N°7 BIS RUE JEANNE D'ARC",
        "capacity": 25,
        "lat": 49.4395241490918,
        "lon": 1.08880494987062,
        "name": "01 - THEATRE DES ARTS",
        "station_id": "1"
      },
      {
        "address": "DEVANT N° 6 RUE EDOUARD ADAM",
        "capacity": 15,
        "lat": 49.441201188322225,
        "lon": 1.105985502540096,
        "name": "06- CHU - RUE DE GERMONT",
        "station_id": "6"
      },
      {
        "address": "",
        "capacity": 20,
        "lat": 49.446882,
        "lon": 1.106504,
        "name": "28 - BOULINGRIN",
        "station_id": "28"
      },
      {
        "address": "AVENUE JACQUES CHASTELLAIN - PARKING DE LA PATINOIRE",
        "capacity": 20,
        "lat": 49.431521256315975,
        "lon": 1.102925918082832,
        "name": "16-ILE LACROIX",
        "station_id": "16"
      },
      {
        "address": "PLACE SAINT SEVER",
        "capacity": 20,
        "lat": 49.430880514851474,
        "lon": 1.086095305349564,
        "name": "13- SAINT SEVER",
        "station_id": "13"
      },
      {
        "address": "COURS CLEMENCEAU",
        "capacity": 20,
        "lat": 49.43464613956876,
        "lon": 1.087959490140167,
        "name": "11- CLEMENCEAU JOFFRE",
        "station_id": "11"
      },
      {
        "address": "RUE D' AMIENS",
        "capacity": 20,
        "lat": 49.43885379551624,
        "lon": 1.107488426850231,
        "name": "07- CHU - BOULEVARD GAMBETTA",
        "station_id": "7"
      },
      {
        "address": "",
        "capacity": 30,
        "lat": 49.448589,
        "lon": 1.064651,
        "name": "27 - P+R MONT RIBOUDET",
        "station_id": "27"
      },
      {
        "address": "RUE DE LESSARD ANGLE AVENUE DE GRAMMOND",
        "capacity": 16,
        "lat": 49.427214017510224,
        "lon": 1.096418417222262,
        "name": "21 - SIMONE DE BEAUVOIR",
        "station_id": "21"
      },
      {
        "address": "bd ferdinands de lesseps angle rue amedee dormoy",
        "capacity": 26,
        "lat": 49.44541856175536,
        "lon": 1.063998154832871,
        "name": "18 - DOCKS",
        "station_id": "18"
      }
    ]
  },
  "last_updated": 1687063013,
  "ttl": 60,
  "version": "1.1"
}
